City_ID,City,Lat,Lng,Max Temp,Humidity,Cloudiness,Wind Speed,Country,Date
0,Mahebourg,-20.4081,57.7,76.24,83,100,6.71,MU,2022-01-09 23:13:06
1,Hamilton,39.1834,-84.5333,35.64,62,0,3.0,US,2022-01-09 23:10:50
2,Kaduy,59.2,37.15,11.93,98,98,2.55,RU,2022-01-09 23:13:06
3,Upernavik,72.7868,-56.1549,0.36,98,100,11.56,GL,2022-01-09 23:13:07
4,Lata,40.1629,-8.3327,56.71,99,100,2.82,PT,2022-01-09 23:13:07
5,Belaya Gora,68.5333,146.4167,-35.3,100,55,4.38,RU,2022-01-09 23:10:58
6,Tiksi,71.6872,128.8694,-1.7,66,100,22.06,RU,2022-01-09 23:13:07
7,Busselton,-33.65,115.3333,61.05,69,78,11.3,AU,2022-01-09 23:13:08
8,Ribeira Grande,38.5167,-28.7,61.27,75,100,20.38,PT,2022-01-09 23:13:08
9,Carnarvon,-24.8667,113.6333,73.47,60,0,13.8,AU,2022-01-09 23:13:08
10,New Norfolk,-42.7826,147.0587,62.65,76,100,1.99,AU,2022-01-09 23:13:09
11,Tuktoyaktuk,69.4541,-133.0374,-28.62,99,57,7.16,CA,2022-01-09 23:13:09
12,Namtsy,62.7161,129.6658,-41.69,100,79,2.01,RU,2022-01-09 23:13:09
13,Mataura,-46.1927,168.8643,66.47,57,68,1.41,NZ,2022-01-09 23:13:10
14,Rikitea,-23.1203,-134.9692,78.3,79,100,18.97,PF,2022-01-09 23:13:10
15,Jamestown,42.097,-79.2353,35.1,61,100,13.0,US,2022-01-09 23:13:10
16,Asau,46.4333,26.4,37.4,99,99,3.27,RO,2022-01-09 23:11:36
17,Kieta,-6.2167,155.6333,84.94,71,28,10.0,PG,2022-01-09 23:13:11
18,Dingle,10.9995,122.6711,74.48,93,71,5.64,PH,2022-01-09 23:13:11
19,Albany,42.6001,-73.9662,38.73,91,100,1.01,US,2022-01-09 23:08:21
20,Urusha,54.05,122.9,-22.34,96,54,3.24,RU,2022-01-09 23:13:11
21,Punta Arenas,-53.15,-70.9167,51.91,54,75,23.02,CL,2022-01-09 23:09:14
22,Manzini,-26.25,31.5,67.24,90,71,0.18,SZ,2022-01-09 23:13:12
23,Hermanus,-34.4187,19.2345,71.8,86,100,11.27,ZA,2022-01-09 23:13:12
24,Pisco,-13.7,-76.2167,73.45,83,0,21.85,PE,2022-01-09 23:13:12
25,Nago,26.5881,127.9761,64.47,75,87,11.25,JP,2022-01-09 23:13:13
26,Sinnamary,5.3833,-52.95,76.12,82,98,7.36,GF,2022-01-09 23:13:13
27,Barrow,71.2906,-156.7887,-16.58,69,20,3.44,US,2022-01-09 23:13:13
28,Constitucion,-35.3333,-72.4167,64.53,76,18,8.48,CL,2022-01-09 23:13:14
29,Bluff,-46.6,168.3333,66.79,83,91,4.52,NZ,2022-01-09 23:13:14
30,Kodiak,57.79,-152.4072,29.71,55,100,21.85,US,2022-01-09 23:12:55
31,Nanortalik,60.1432,-45.2371,19.17,78,100,34.85,GL,2022-01-09 23:13:14
32,Klaksvik,62.2266,-6.589,43.72,90,81,34.54,FO,2022-01-09 23:13:15
33,La Mira,18.035,-102.3266,83.23,51,73,7.34,MX,2022-01-09 23:13:15
34,Sosnovo-Ozerskoye,52.5249,111.5418,-27.56,100,49,0.78,RU,2022-01-09 23:13:15
35,Cayenne,4.9333,-52.3333,79.09,77,0,1.01,GF,2022-01-09 23:13:16
36,Urengoy,65.9667,78.3667,-14.51,99,96,6.08,RU,2022-01-09 23:13:16
37,Ulaangom,49.9811,92.0667,-13.16,91,98,3.44,MN,2022-01-09 23:13:16
38,Kaeo,-35.1,173.7833,80.33,69,99,4.74,NZ,2022-01-09 23:13:17
39,Ushuaia,-54.8,-68.3,44.26,70,75,8.05,AR,2022-01-09 23:10:23
40,Mayor Pablo Lagerenza,-19.9309,-60.7718,87.44,42,57,3.33,PY,2022-01-09 23:13:17
41,Puerto Ayora,-0.7393,-90.3518,74.01,82,83,8.25,EC,2022-01-09 23:13:17
42,Gibara,21.1097,-76.1317,78.12,78,63,15.57,CU,2022-01-09 23:13:18
43,Ottawa,45.4112,-75.6981,34.52,74,100,1.01,CA,2022-01-09 23:09:18
44,Roald,62.5833,6.1333,34.09,64,0,13.8,NO,2022-01-09 23:13:18
45,Chumikan,54.7183,135.315,-14.84,87,92,12.77,RU,2022-01-09 23:13:18
46,Jalu,29.0331,21.5482,51.53,52,0,12.66,LY,2022-01-09 23:13:19
47,Lebu,-37.6167,-73.65,62.19,84,20,4.05,CL,2022-01-09 23:14:19
48,Leningradskiy,69.3833,178.4167,-16.8,92,38,5.1,RU,2022-01-09 23:14:19
49,Faanui,-16.4833,-151.75,81.37,71,59,2.77,PF,2022-01-09 23:14:20
50,Katherine,-14.4667,132.2667,82.72,69,45,8.05,AU,2022-01-09 23:14:20
51,Bourail,-21.5667,165.4833,82.89,71,10,7.92,NC,2022-01-09 23:14:20
52,Vallenar,-28.5708,-70.7581,74.95,45,25,7.47,CL,2022-01-09 23:14:21
53,Paignton,50.4357,-3.5679,46.65,95,100,4.0,GB,2022-01-09 23:14:21
54,Kapaa,22.0752,-159.319,79.2,60,0,8.05,US,2022-01-09 23:14:21
55,Yulara,-25.2406,130.9889,91.47,14,15,13.31,AU,2022-01-09 23:14:22
56,Port Alfred,-33.5906,26.891,72.64,92,51,14.72,ZA,2022-01-09 23:14:22
57,Dikson,73.5069,80.5464,-11.72,100,99,8.05,RU,2022-01-09 23:14:22
58,Saint-Philippe,-21.3585,55.7679,78.39,84,73,8.19,RE,2022-01-09 23:14:23
59,Broome,42.2506,-75.833,38.19,80,100,1.01,US,2022-01-09 23:14:23
60,Cape Town,-33.9258,18.4232,70.88,75,99,1.01,ZA,2022-01-09 23:14:23
61,San Rafael Del Sur,11.8485,-86.4384,85.17,49,13,14.7,NI,2022-01-09 23:14:24
62,Namibe,-15.1961,12.1522,65.79,80,15,6.22,AO,2022-01-09 23:14:24
63,Tokur,53.1333,132.9,-27.76,98,83,2.68,RU,2022-01-09 23:14:24
64,Clyde River,70.4692,-68.5914,-5.57,84,100,27.63,CA,2022-01-09 23:14:24
65,Noumea,-22.2763,166.4572,85.98,99,52,16.67,NC,2022-01-09 23:12:21
66,Ilulissat,69.2167,-51.1,17.62,86,100,13.8,GL,2022-01-09 23:14:25
67,Vardo,70.3705,31.1107,19.6,77,100,13.8,NO,2022-01-09 23:14:25
68,Abu Samrah,35.3029,37.1841,50.92,73,29,10.0,SY,2022-01-09 23:14:25
69,Chapais,49.7834,-74.8492,6.58,87,100,16.4,CA,2022-01-09 23:14:26
70,San Quintin,30.4833,-115.95,64.62,54,68,8.57,MX,2022-01-09 23:14:26
71,Vypolzovo,57.8767,33.6986,5.88,99,100,0.74,RU,2022-01-09 23:14:26
72,Derzhavinsk,51.1,66.3167,-10.01,100,21,3.33,KZ,2022-01-09 23:14:27
73,Hobart,-42.8794,147.3294,63.01,85,75,16.11,AU,2022-01-09 23:13:07
74,Fort Nelson,58.8053,-122.7002,-20.61,76,100,0.0,CA,2022-01-09 23:14:27
75,Mar Del Plata,-38.0023,-57.5575,77.0,1,46,7.0,AR,2022-01-09 23:09:43
76,Sao Filipe,14.8961,-24.4956,72.86,64,100,0.69,CV,2022-01-09 23:11:37
77,Butaritari,3.0707,172.7902,81.52,77,99,14.18,KI,2022-01-09 23:14:28
78,Airai,-8.9266,125.4092,65.19,82,51,0.43,TL,2022-01-09 23:14:28
79,Gambela,8.25,34.5833,80.15,50,9,3.85,ET,2022-01-09 23:14:28
80,Qaanaaq,77.484,-69.3632,0.28,70,95,7.45,GL,2022-01-09 23:14:28
81,Erenhot,43.6475,111.9767,3.83,80,18,7.27,CN,2022-01-09 23:14:29
82,Waterfoot,53.6929,-2.2525,42.98,95,78,1.01,GB,2022-01-09 23:14:29
83,Carauari,-4.8828,-66.8958,74.43,96,94,1.79,BR,2022-01-09 23:14:29
84,Vaini,-21.2,-175.2,80.76,89,100,11.5,TO,2022-01-09 23:14:30
85,Sorland,67.667,12.6934,32.29,60,4,7.7,NO,2022-01-09 23:14:30
86,Luoyang,34.6836,112.4536,37.98,77,100,3.36,CN,2022-01-09 23:14:30
87,Eratira,40.35,21.5167,40.86,91,99,3.29,GR,2022-01-09 23:14:31
88,Sorong,-0.8833,131.25,80.69,81,84,5.88,ID,2022-01-09 23:14:31
89,Zhigansk,66.7697,123.3711,-29.51,94,86,20.22,RU,2022-01-09 23:14:31
90,Tasiilaq,65.6145,-37.6368,32.16,73,100,49.86,GL,2022-01-09 23:14:32
91,Georgetown,5.4112,100.3354,80.53,73,20,1.01,MY,2022-01-09 23:09:54
92,Vila Velha,-20.3297,-40.2925,75.15,95,75,2.3,BR,2022-01-09 23:10:40
93,Aswan,24.0934,32.907,58.3,44,0,16.11,EG,2022-01-09 23:15:32
94,Ouegoa,-20.35,164.4333,84.18,69,25,14.52,NC,2022-01-09 23:15:33
95,Gat,31.61,34.7642,55.9,36,40,9.75,IL,2022-01-09 23:11:01
96,Beloha,-25.1667,45.05,74.88,77,100,10.74,MG,2022-01-09 23:15:33
97,Kidal,18.4411,1.4078,61.23,15,82,12.53,ML,2022-01-09 23:15:33
98,Padang,-0.9492,100.3543,75.25,88,100,4.72,ID,2022-01-09 23:15:34
99,Wewak,-3.5534,143.6268,81.19,74,56,7.18,PG,2022-01-09 23:15:34
100,Victoria,22.2855,114.1577,64.33,83,52,1.99,HK,2022-01-09 23:10:45
101,Praia,14.9215,-23.5087,72.14,78,40,10.36,CV,2022-01-09 23:15:35
102,Alcaniz,41.05,-0.1333,63.43,65,98,33.62,ES,2022-01-09 23:15:35
103,Bambanglipuro,-7.95,110.2833,76.98,88,99,5.32,ID,2022-01-09 23:15:35
104,Yellowknife,62.456,-114.3525,-24.59,89,75,3.44,CA,2022-01-09 23:15:21
105,East London,-33.0153,27.9116,73.67,87,88,20.83,ZA,2022-01-09 23:15:36
106,Inirida,3.8653,-67.9239,79.2,64,84,0.74,CO,2022-01-09 23:15:36
107,Bredasdorp,-34.5322,20.0403,71.28,78,100,12.66,ZA,2022-01-09 23:15:36
108,Caledonia,42.8078,-87.9242,14.02,54,0,3.0,US,2022-01-09 23:15:36
109,Atuona,-9.8,-139.0333,78.89,72,14,17.52,PF,2022-01-09 23:15:37
110,Fortuna,40.5982,-124.1573,63.93,59,0,1.99,US,2022-01-09 23:15:37
111,Provideniya,64.3833,-173.3,8.71,66,0,15.66,RU,2022-01-09 23:11:01
112,Chokurdakh,70.6333,147.9167,-26.88,97,12,8.21,RU,2022-01-09 23:15:38
113,Lompoc,34.6391,-120.4579,70.79,67,0,9.22,US,2022-01-09 23:13:46
114,Bushehr,28.9684,50.8385,53.69,94,3,0.0,IR,2022-01-09 23:15:38
115,Isangel,-19.55,169.2667,84.31,79,75,13.8,VU,2022-01-09 23:15:38
116,Manokwari,-0.8667,134.0833,78.58,76,94,3.27,ID,2022-01-09 23:15:39
117,Port Elizabeth,-33.918,25.5701,67.1,94,75,16.11,ZA,2022-01-09 23:15:39
118,Saint George,37.1041,-113.5841,59.47,28,0,1.99,US,2022-01-09 23:10:57
119,Beira,-19.8436,34.8389,78.15,78,6,5.44,MZ,2022-01-09 23:15:40
120,Coquimbo,-29.9533,-71.3436,67.73,68,0,11.5,CL,2022-01-09 23:15:40
121,Ugoofaaru,5.6667,73.0,80.83,73,91,9.08,MV,2022-01-09 23:15:40
122,Vestmanna,62.1564,-7.1664,41.92,93,100,23.02,FO,2022-01-09 23:15:40
123,Gizo,-8.103,156.8419,82.54,78,35,10.89,SB,2022-01-09 23:15:41
124,Katsuura,35.1333,140.3,49.19,81,100,21.45,JP,2022-01-09 23:15:41
125,Taltal,-25.4,-70.4833,67.32,76,87,4.25,CL,2022-01-09 23:15:15
126,Csobanka,47.6464,18.9619,31.95,74,100,0.89,HU,2022-01-09 23:15:42
127,Tagusao,9.1924,117.8141,77.79,84,62,4.07,PH,2022-01-09 23:15:42
128,Hilo,19.7297,-155.09,80.33,69,20,8.05,US,2022-01-09 23:15:42
129,Sinnar,13.5691,33.5672,81.25,32,47,7.9,SD,2022-01-09 23:15:43
130,Singapore,1.2897,103.8501,78.84,84,75,11.5,SG,2022-01-09 23:15:43
131,Cidreira,-30.1811,-50.2056,72.64,72,32,18.54,BR,2022-01-09 23:15:44
132,Aksu,41.1231,80.2644,22.46,51,91,1.7,CN,2022-01-09 23:12:39
133,Sao Felix Do Xingu,-6.6447,-51.995,71.02,99,100,1.95,BR,2022-01-09 23:15:44
134,Tall Kayf,37.0833,41.0667,50.32,58,98,15.61,TR,2022-01-09 23:15:44
135,Bethel,41.3712,-73.414,38.75,88,100,10.36,US,2022-01-09 23:15:45
136,Djibo,14.1022,-1.6306,68.2,12,4,9.31,BF,2022-01-09 23:16:45
137,Nkhotakota,-12.9274,34.2961,75.2,77,100,4.72,MW,2022-01-09 23:16:46
138,Petropavlovsk-Kamchatskiy,53.0452,158.6483,30.79,100,100,0.0,RU,2022-01-09 23:16:46
139,Rock Sound,24.9,-76.2,76.06,75,94,21.68,BS,2022-01-09 23:16:46
140,Naze,28.3667,129.4833,58.12,75,98,11.27,JP,2022-01-09 23:16:46
141,Esperance,-33.8667,121.9,62.89,67,100,15.43,AU,2022-01-09 23:16:47
142,Shaunavon,49.6501,-108.4181,-1.03,92,64,3.2,CA,2022-01-09 23:16:47
143,Altay,47.8667,88.1167,13.82,77,42,6.04,CN,2022-01-09 23:16:47
144,Narsaq,60.9167,-46.05,19.62,91,100,2.98,GL,2022-01-09 23:16:48
145,Ambilobe,-13.2,49.05,74.53,94,100,1.14,MG,2022-01-09 23:16:48
146,Hithadhoo,-0.6,73.0833,81.3,74,31,6.71,MV,2022-01-09 23:16:48
147,Cozumel,20.5083,-86.9458,79.95,88,100,1.99,MX,2022-01-09 23:16:49
148,Talnakh,69.4865,88.3972,-3.8,98,100,3.24,RU,2022-01-09 23:16:49
149,Souillac,-20.5167,57.5167,76.35,100,75,3.44,MU,2022-01-09 23:16:49
150,Aktash,50.3,87.7333,-5.04,80,85,1.74,RU,2022-01-09 23:16:50
151,Mahdasht,35.7299,50.8111,39.42,56,0,4.61,IR,2022-01-09 23:16:50
152,Kaitangata,-46.2817,169.8464,64.36,72,86,4.79,NZ,2022-01-09 23:16:50
153,Honningsvag,70.9821,25.9704,30.43,65,100,18.81,NO,2022-01-09 23:16:51
154,Labuhan,-6.8844,112.2051,78.64,85,100,5.1,ID,2022-01-09 23:16:20
155,Bilibino,68.0546,166.4372,-15.3,97,69,2.77,RU,2022-01-09 23:16:51
156,Tigzirt,36.8886,4.1198,54.27,79,66,17.13,DZ,2022-01-09 23:16:51
157,Chuy,-33.6971,-53.4616,70.84,75,0,14.88,UY,2022-01-09 23:16:52
158,Havre-Saint-Pierre,50.2334,-63.5986,25.39,86,100,10.36,CA,2022-01-09 23:16:52
159,Hoa Binh,20.8133,105.3383,55.29,92,100,1.74,VN,2022-01-09 23:16:52
160,Hovd,48.0056,91.6419,1.56,75,60,3.4,MN,2022-01-09 23:16:53
161,Lensk,60.7253,114.9278,-26.45,95,11,2.82,RU,2022-01-09 23:16:53
162,Salinas,36.6777,-121.6555,68.56,45,0,12.66,US,2022-01-09 23:14:57
163,Itoman,26.1247,127.6694,66.22,77,75,6.91,JP,2022-01-09 23:16:54
164,Nikolskoye,59.7035,30.7861,24.69,99,94,1.81,RU,2022-01-09 23:16:54
165,Saint-Georges,12.0564,-61.7485,77.36,73,49,13.09,GD,2022-01-09 23:16:54
166,Geraldton,-28.7667,114.6,69.13,45,0,17.27,AU,2022-01-09 23:16:55
167,Chegdomyn,51.1167,133.0167,-26.7,100,59,1.79,RU,2022-01-09 23:16:55
168,Axim,4.8699,-2.2405,80.73,82,69,7.36,GH,2022-01-09 23:16:55
169,Zachary,30.6485,-91.1565,73.06,97,40,5.75,US,2022-01-09 23:16:56
170,Beberibe,-4.1797,-38.1306,83.16,80,93,9.73,BR,2022-01-09 23:16:56
171,Ahipara,-35.1667,173.1667,74.3,61,100,4.72,NZ,2022-01-09 23:16:56
172,Karla,59.3723,24.9275,29.14,87,100,11.5,EE,2022-01-09 23:16:57
173,Saskylakh,71.9167,114.0833,6.6,92,100,10.27,RU,2022-01-09 23:16:57
174,Pangnirtung,66.1451,-65.7125,-25.4,86,29,6.38,CA,2022-01-09 23:16:57
175,Chauk,20.8833,94.8167,64.33,65,0,4.23,MM,2022-01-09 23:16:58
176,Hobyo,5.3505,48.5268,76.77,68,7,20.33,SO,2022-01-09 23:16:58
177,Avarua,-21.2078,-159.775,82.45,78,100,12.66,CK,2022-01-09 23:13:57
178,Codrington,-38.2667,141.9667,71.8,51,61,8.72,AU,2022-01-09 23:16:58
179,Buluang,13.3068,123.3425,74.1,93,88,2.64,PH,2022-01-09 23:16:59
180,Adrar,20.5022,-10.0711,60.85,11,100,9.66,MR,2022-01-09 23:16:59
181,Bambous Virieux,-20.3428,57.7575,76.21,100,75,3.44,MU,2022-01-09 23:17:00
182,Hun,29.1268,15.9477,49.41,43,14,10.96,LY,2022-01-09 23:18:00
183,Wanning,18.8003,110.3967,69.15,82,87,1.97,CN,2022-01-09 23:18:01
184,Mandal,25.45,74.5667,49.41,72,0,5.75,IN,2022-01-09 23:18:02
185,Masuguru,-11.3667,38.4167,72.95,97,100,2.42,TZ,2022-01-09 23:18:02
186,Kushima,31.4583,131.2333,39.24,77,0,5.26,JP,2022-01-09 23:18:02
187,Hailar,49.2,119.7,-20.18,98,86,3.98,CN,2022-01-09 23:18:03
188,Arraial Do Cabo,-22.9661,-42.0278,69.66,94,100,2.3,BR,2022-01-09 23:18:03
189,Meadow Lake,34.8014,-106.5436,50.29,42,3,5.73,US,2022-01-09 23:18:03
190,Keskin,39.6731,33.6136,43.07,74,100,3.02,TR,2022-01-09 23:18:04
191,Bom Jardim,-7.7958,-35.5872,79.14,74,27,11.39,BR,2022-01-09 23:18:04
192,Fayaoue,-20.65,166.5333,80.91,78,38,25.48,NC,2022-01-09 23:18:04
193,Alexandria,31.2156,29.9553,52.34,66,40,14.97,EG,2022-01-09 23:15:21
194,Vanimo,-2.6741,141.3028,79.16,85,93,6.46,PG,2022-01-09 23:18:05
195,Sabang,5.8933,95.3214,80.6,75,71,8.81,ID,2022-01-09 23:18:05
196,Jizan,17.3333,42.6667,76.14,82,5,1.72,SA,2022-01-09 23:18:05
197,Pizhma,57.8642,47.1171,17.46,90,100,8.34,RU,2022-01-09 23:18:06
198,Letlhakane,-21.4167,25.5833,72.9,63,95,9.71,BW,2022-01-09 23:18:06
199,College,64.8569,-147.8028,-9.74,69,75,12.66,US,2022-01-09 23:18:06
200,Haapiti,-17.5667,-149.8667,82.13,82,93,23.31,PF,2022-01-09 23:18:07
201,Hasaki,35.7333,140.8333,43.2,70,100,22.17,JP,2022-01-09 23:18:07
202,Porto Velho,-8.7619,-63.9039,77.05,88,20,2.3,BR,2022-01-09 23:18:07
203,Leh,34.1667,77.5833,6.3,79,99,4.41,IN,2022-01-09 23:18:08
204,Kousseri,12.0769,15.0306,71.24,36,90,9.17,CM,2022-01-09 23:18:08
205,Vila Franca Do Campo,37.7167,-25.4333,60.19,79,84,11.41,PT,2022-01-09 23:18:08
206,Pimentel,-6.8367,-79.9342,75.49,69,0,14.97,PE,2022-01-09 23:18:09
207,Merrill,45.1805,-89.6835,2.17,60,0,11.5,US,2022-01-09 23:18:09
208,Kamaishi,39.2667,141.8833,25.75,73,100,5.99,JP,2022-01-09 23:18:09
209,Salalah,17.0151,54.0924,69.89,32,0,8.05,OM,2022-01-09 23:18:09
210,Si Sa Ket,14.8333,104.3333,71.22,74,14,3.38,TH,2022-01-09 23:18:10
211,Mpongwe,-13.5091,28.155,64.96,93,100,2.8,ZM,2022-01-09 23:18:10
212,Severo-Kurilsk,50.6789,156.125,29.79,85,84,10.78,RU,2022-01-09 23:18:10
213,Krasnoselkup,65.7,82.4667,-5.69,98,100,9.26,RU,2022-01-09 23:18:11
214,Ahuimanu,21.4447,-157.8378,80.31,65,40,9.22,US,2022-01-09 23:18:11
215,Preobrazheniye,42.9019,133.9064,15.55,39,0,5.75,RU,2022-01-09 23:18:11
216,Salym,60.0625,71.4789,2.82,92,26,8.46,RU,2022-01-09 23:18:12
217,Ostersund,63.1792,14.6357,1.74,99,92,3.06,SE,2022-01-09 23:18:12
218,Shakawe,-18.3667,21.85,67.39,94,100,5.26,BW,2022-01-09 23:18:12
219,Mount Isa,-20.7333,139.5,92.97,26,54,11.5,AU,2022-01-09 23:14:47
220,Hofn,64.2539,-15.2082,42.71,85,100,30.44,IS,2022-01-09 23:18:13
221,Belmonte,-15.8631,-38.8828,77.5,83,97,9.35,BR,2022-01-09 23:18:13
222,Thompson,55.7435,-97.8558,-21.84,69,0,10.36,CA,2022-01-09 23:18:13
223,La Ronge,55.1001,-105.2842,-14.55,64,40,3.44,CA,2022-01-09 23:18:14
224,Peace River,56.2501,-117.286,5.02,96,100,3.31,CA,2022-01-09 23:13:46
225,Eyl,7.9803,49.8164,74.23,72,18,16.96,SO,2022-01-09 23:18:14
226,Saint-Francois,46.4154,3.9054,39.47,96,75,3.44,FR,2022-01-09 23:18:14
227,Havelock,34.8791,-76.9013,64.4,82,40,5.01,US,2022-01-09 23:18:15
228,Buchanan,5.8808,-10.0467,78.76,85,54,6.29,LR,2022-01-09 23:18:15
229,Ustye,59.6304,39.736,13.91,97,99,4.18,RU,2022-01-09 23:18:16
230,Barroso,-21.1869,-43.9758,66.38,98,100,6.6,BR,2022-01-09 23:19:16
231,Ustka,54.5805,16.8619,28.62,78,100,10.78,PL,2022-01-09 23:19:16
232,Margate,51.3813,1.3862,40.95,93,11,7.56,GB,2022-01-09 23:19:17
233,Bengkulu,-3.8004,102.2655,75.11,91,92,4.03,ID,2022-01-09 23:19:17
234,Kholmogory,64.2229,41.656,0.1,100,86,3.58,RU,2022-01-09 23:19:17
235,Iqaluit,63.7506,-68.5145,-27.31,67,0,11.99,CA,2022-01-09 23:19:17
236,Beringovskiy,63.05,179.3167,-12.42,85,2,11.3,RU,2022-01-09 23:19:18
237,Nome,64.5011,-165.4064,5.07,51,0,29.93,US,2022-01-09 23:16:20
238,Culiacan,24.7994,-107.3897,81.16,51,100,0.0,MX,2022-01-09 23:14:55
239,Umm Kaddadah,13.6017,26.6876,76.06,25,7,5.91,SD,2022-01-09 23:19:18
240,Oyama,36.3,139.8,47.59,57,91,5.08,JP,2022-01-09 23:19:19
241,Bousso,10.4795,16.7117,75.96,18,1,8.66,TD,2022-01-09 23:19:19
242,Tuy Hoa,13.0833,109.3,71.91,89,79,3.62,VN,2022-01-09 23:19:20
243,Harlow,51.7766,0.1116,38.41,90,46,3.44,GB,2022-01-09 23:17:33
244,Qaqortoq,60.7167,-46.0333,19.9,81,100,4.12,GL,2022-01-09 23:19:20
245,Torbay,47.6666,-52.7314,28.76,80,100,3.0,CA,2022-01-09 23:19:20
246,Port Hedland,-20.3167,118.5667,86.05,74,7,9.22,AU,2022-01-09 23:19:21
247,Zhangye,38.9342,100.4517,20.41,66,1,5.59,CN,2022-01-09 23:19:21
248,Kamyaran,34.7956,46.9355,26.55,47,66,2.1,IR,2022-01-09 23:19:21
249,Coihaique,-45.5752,-72.0662,63.21,51,75,5.75,CL,2022-01-09 23:19:22
250,Zyryanka,65.75,150.85,-7.92,97,100,5.55,RU,2022-01-09 23:17:33
251,Sept-Iles,50.2001,-66.3821,24.06,91,100,11.99,CA,2022-01-09 23:19:22
252,Tessalit,20.1986,1.0114,59.38,17,72,11.59,ML,2022-01-09 23:17:33
253,Salta,-24.7859,-65.4117,82.69,71,75,1.99,AR,2022-01-09 23:19:22
254,Fairbanks,64.8378,-147.7164,-13.0,70,0,6.91,US,2022-01-09 23:18:15
255,Ola,59.5833,151.2833,14.14,81,100,10.2,RU,2022-01-09 23:19:23
256,Kamenka,51.3223,42.7678,23.76,83,100,15.26,RU,2022-01-09 23:19:23
257,Reading,51.4562,-0.9711,41.85,86,100,3.44,GB,2022-01-09 23:17:37
258,Inuvik,68.3499,-133.7218,-24.74,75,40,3.44,CA,2022-01-09 23:19:24
259,Nova Vicosa,-17.8919,-39.3719,75.88,90,98,8.01,BR,2022-01-09 23:19:24
260,Tiznit,29.5833,-9.5,56.35,32,68,4.94,MA,2022-01-09 23:19:24
261,Waipawa,-41.4122,175.5153,68.63,59,100,3.11,NZ,2022-01-09 23:19:24
262,Korla,41.7597,86.1469,23.63,65,100,4.63,CN,2022-01-09 23:19:25
263,Dicabisagan,17.0818,122.4157,72.1,89,57,5.1,PH,2022-01-09 23:19:25
264,Kerema,-7.9631,145.7785,80.82,79,96,7.78,PG,2022-01-09 23:19:25
265,Ayr,55.4627,-4.6339,43.11,100,20,4.61,GB,2022-01-09 23:19:26
266,Poco Verde,-10.7083,-38.1833,75.78,80,100,10.33,BR,2022-01-09 23:19:26
267,Lere,10.387,8.5726,69.8,23,1,6.58,NG,2022-01-09 23:19:26
268,Itarema,-2.9248,-39.9167,80.19,74,100,10.78,BR,2022-01-09 23:19:27
269,Ponta Do Sol,32.6667,-17.1,65.71,43,99,10.33,PT,2022-01-09 23:19:27
270,Haifa,32.8156,34.9892,53.2,73,29,15.1,IL,2022-01-09 23:19:27
271,Prince George,53.9166,-122.753,35.26,82,0,14.97,CA,2022-01-09 23:19:28
272,Tromso,69.6496,18.957,17.38,92,20,2.3,NO,2022-01-09 23:19:28
273,Casper,42.8666,-106.3131,36.19,35,0,20.71,US,2022-01-09 23:15:00
274,Cedar City,37.6775,-113.0619,39.4,42,0,4.61,US,2022-01-09 23:19:29
275,Garowe,8.4054,48.4845,65.91,81,6,11.86,SO,2022-01-09 23:19:29
276,Westport,41.1415,-73.3579,41.04,92,100,1.01,US,2022-01-09 23:19:35
277,Samarai,-10.6167,150.6667,81.95,76,86,6.31,PG,2022-01-09 23:20:29
278,Rupnagar,30.9664,76.5331,52.23,90,100,3.22,IN,2022-01-09 23:20:30
279,Baghdad,33.3406,44.4009,49.91,57,0,8.05,IQ,2022-01-09 23:17:39
280,Chimbote,-9.0853,-78.5783,73.47,73,9,9.44,PE,2022-01-09 23:20:30
281,Saldanha,-33.0117,17.9442,64.45,91,68,5.03,ZA,2022-01-09 23:20:30
282,Cherskiy,68.75,161.3,-16.19,98,100,0.83,RU,2022-01-09 23:20:31
283,Mahajanga,-15.7167,46.3167,75.22,94,40,4.61,MG,2022-01-09 23:20:31
284,Tuatapere,-46.1333,167.6833,66.81,79,95,1.07,NZ,2022-01-09 23:20:31
285,Gazanjyk,39.2446,55.5154,42.69,69,0,10.67,TM,2022-01-09 23:20:31
286,Kiunga,-6.1219,141.2906,78.3,86,100,3.33,PG,2022-01-09 23:20:32
287,Lavrentiya,65.5833,-171.0,-10.44,81,9,12.68,RU,2022-01-09 23:20:32
288,Acarau,-2.8856,-40.12,80.19,74,100,11.03,BR,2022-01-09 23:20:11
289,Aklavik,68.2191,-135.0107,-24.77,98,9,3.87,CA,2022-01-09 23:20:33
290,Romny,50.751,33.4747,32.23,98,100,7.83,UA,2022-01-09 23:20:33
291,Panalingaan,8.7842,117.4231,77.68,85,37,5.41,PH,2022-01-09 23:20:33
292,Pahalgam,34.0333,75.3333,25.3,89,100,4.25,IN,2022-01-09 23:20:34
293,Tocopilla,-22.092,-70.1979,69.84,73,86,6.42,CL,2022-01-09 23:20:34
294,Horsham,51.064,-0.3272,42.49,77,0,1.14,GB,2022-01-09 23:20:34
295,Cabo San Lucas,22.8909,-109.9124,79.9,75,100,4.0,MX,2022-01-09 23:16:41
296,Buala,-8.145,159.5921,83.75,75,87,6.87,SB,2022-01-09 23:20:35
297,Goure,13.9835,10.2704,62.02,16,1,13.96,NE,2022-01-09 23:20:35
298,Ouesso,1.6136,16.0517,76.86,44,35,1.34,CG,2022-01-09 23:20:35
299,Saint Anthony,45.0205,-93.218,4.93,59,0,3.0,US,2022-01-09 23:20:36
300,Pocatello,42.8713,-112.4455,31.91,62,0,10.0,US,2022-01-09 23:20:36
301,Porbandar,21.6422,69.6093,61.9,51,0,9.98,IN,2022-01-09 23:18:27
302,Puqi,29.7167,113.8833,44.62,78,100,3.04,CN,2022-01-09 23:20:37
303,Elko,41.0002,-115.5012,37.42,86,6,3.56,US,2022-01-09 23:20:37
304,Kavieng,-2.5744,150.7967,82.99,71,100,6.91,PG,2022-01-09 23:20:37
305,Namatanai,-3.6667,152.4333,82.9,71,88,4.72,PG,2022-01-09 23:20:37
306,Noyabrsk,63.1994,75.4507,-4.92,96,89,12.86,RU,2022-01-09 23:20:38
307,Yichang,30.7144,111.2847,45.34,84,100,1.32,CN,2022-01-09 23:20:38
308,Portland,45.5234,-122.6762,54.37,60,0,1.99,US,2022-01-09 23:20:18
309,Khatanga,71.9667,102.5,-12.03,98,49,4.85,RU,2022-01-09 23:20:39
310,Pochutla,15.7432,-96.4661,84.02,55,30,5.23,MX,2022-01-09 23:20:39
311,Aykhal,66.0,111.5,0.41,95,100,21.56,RU,2022-01-09 23:20:39
312,Tautira,-17.7333,-149.15,82.42,80,99,25.79,PF,2022-01-09 23:20:40
313,Najran,17.4924,44.1277,54.25,33,0,1.14,SA,2022-01-09 23:20:40
314,Sironko,1.2313,34.2477,69.17,46,55,4.61,UG,2022-01-09 23:20:40
315,Aitape,-3.1374,142.3475,80.28,76,46,6.29,PG,2022-01-09 23:20:41
316,Douentza,14.9951,-2.9517,65.73,13,21,5.97,ML,2022-01-09 23:20:41
317,Kirkland Lake,48.1446,-80.0377,4.03,71,100,12.77,CA,2022-01-09 23:20:41
318,Comodoro Rivadavia,-45.8667,-67.5,82.26,21,0,23.02,AR,2022-01-09 23:20:41
319,Castro,-24.7911,-50.0119,60.22,84,100,5.44,BR,2022-01-09 23:20:42
320,Ancud,-41.8697,-73.8203,68.43,85,57,7.27,CL,2022-01-09 23:16:38
321,Pendra,22.7667,81.95,54.52,91,9,1.63,IN,2022-01-09 23:20:42
322,Puerto Madryn,-42.7692,-65.0385,71.56,50,21,18.48,AR,2022-01-09 23:20:42
323,Bandar,2.05,99.75,71.06,98,80,1.92,ID,2022-01-09 23:20:43
324,Balykshi,47.0667,51.8667,24.8,93,100,17.9,KZ,2022-01-09 23:21:43
325,Amapa,1.0,-52.0,74.23,86,100,1.07,BR,2022-01-09 23:21:43
326,Longyearbyen,78.2186,15.6401,22.84,93,75,13.8,SJ,2022-01-09 23:21:44
327,Quatre Cocos,-20.2078,57.7625,76.08,80,100,8.05,MU,2022-01-09 23:21:44
328,Kapit,2.0167,112.9333,72.99,100,79,1.21,MY,2022-01-09 23:21:44
329,Rio Grande,-32.035,-52.0986,71.94,75,0,17.94,BR,2022-01-09 23:21:45
330,Northport,33.229,-87.5772,62.37,97,100,0.0,US,2022-01-09 23:21:45
331,Maltahohe,-24.8333,16.9833,68.86,53,17,4.76,NA,2022-01-09 23:21:45
332,Port Hardy,50.6996,-127.4199,46.4,76,75,25.32,CA,2022-01-09 23:21:46
333,Ryazanovskiy,55.55,39.4333,21.67,96,100,5.82,RU,2022-01-09 23:21:46
334,Maarianhamina,60.0973,19.9348,28.26,93,100,6.91,AX,2022-01-09 23:21:46
335,Banda Aceh,5.5577,95.3222,77.95,80,89,4.18,ID,2022-01-09 23:21:47
336,Ust-Nera,64.5667,143.2,-24.41,99,74,2.84,RU,2022-01-09 23:21:47
337,Tsogni,-2.7942,10.0988,75.9,95,88,4.38,GA,2022-01-09 23:21:47
338,Kopychyntsi,49.1044,25.9103,29.55,89,81,5.35,UA,2022-01-09 23:21:48
339,Lorengau,-2.0226,147.2712,82.36,76,81,8.37,PG,2022-01-09 23:21:48
340,Sistranda,63.7256,8.834,31.96,65,0,9.4,NO,2022-01-09 23:21:17
341,Lazaro Cardenas,17.9583,-102.2,82.29,55,76,8.08,MX,2022-01-09 23:21:48
342,Avera,33.194,-82.5271,69.67,79,15,7.83,US,2022-01-09 23:21:49
343,Sitka,57.0531,-135.33,44.49,76,100,20.71,US,2022-01-09 23:21:49
344,Kavaratti,10.5669,72.642,79.65,67,6,7.09,IN,2022-01-09 23:21:49
345,Troitsko-Pechorsk,62.7084,56.1964,9.97,94,100,7.49,RU,2022-01-09 23:21:50
346,Plouzane,48.3833,-4.6167,53.92,100,100,16.11,FR,2022-01-09 23:21:50
347,Hailey,43.5196,-114.3153,26.46,54,0,6.91,US,2022-01-09 23:21:50
348,Lolodorf,3.2333,10.7333,72.41,99,93,1.5,CM,2022-01-09 23:21:51
349,Vryburg,-26.9566,24.7284,74.88,46,97,8.41,ZA,2022-01-09 23:21:51
350,Kargasok,59.0556,80.8572,-1.66,93,91,10.85,RU,2022-01-09 23:21:51
351,Oum Hadjer,13.2954,19.6966,72.68,19,0,11.54,TD,2022-01-09 23:21:52
352,Takaka,-40.85,172.8,70.59,67,100,3.11,NZ,2022-01-09 23:21:52
353,Yeovil,50.9416,-2.6321,46.04,93,75,2.3,GB,2022-01-09 23:21:52
354,Anadyr,64.75,177.4833,-14.3,70,5,6.71,RU,2022-01-09 23:21:53
355,Gigmoto,13.7796,124.39,77.99,85,91,3.8,PH,2022-01-09 23:21:53
356,Seinajoki,62.7945,22.8282,-5.46,64,0,2.3,FI,2022-01-09 23:21:53
357,Los Llanos De Aridane,28.6585,-17.9182,63.12,43,0,11.01,ES,2022-01-09 23:21:53
358,Yamada,39.4667,141.95,31.32,74,100,4.92,JP,2022-01-09 23:21:54
359,Oussouye,12.485,-16.5469,77.09,52,82,14.38,SN,2022-01-09 23:21:54
360,Koumac,-20.5667,164.2833,84.27,68,22,7.7,NC,2022-01-09 23:21:54
361,Viedma,-40.8135,-62.9967,76.64,51,32,16.44,AR,2022-01-09 23:21:55
362,Smolenskoye,52.3044,85.0781,7.12,90,28,9.93,RU,2022-01-09 23:21:55
363,Manaure,11.7751,-72.4445,80.73,62,24,20.07,CO,2022-01-09 23:21:55
364,Kologriv,58.8275,44.3178,20.01,94,100,7.94,RU,2022-01-09 23:21:56
365,Peniche,39.3558,-9.3811,57.61,93,96,6.58,PT,2022-01-09 23:21:56
366,Bonavista,48.6499,-53.1147,27.12,76,46,18.43,CA,2022-01-09 23:21:56
367,Shenjiamen,29.9576,122.298,45.27,74,46,8.19,CN,2022-01-09 23:22:58
368,Saint-Gabriel,46.3001,-73.3824,23.31,76,100,17.52,CA,2022-01-09 23:22:55
369,Vigrestad,58.5667,5.7,39.0,69,100,23.11,NO,2022-01-09 23:22:58
370,Lapeer,43.0514,-83.3188,22.35,63,75,17.27,US,2022-01-09 23:22:59
371,Bathsheba,13.2167,-59.5167,77.61,69,20,17.27,BB,2022-01-09 23:23:01
372,Tura,25.5198,90.2201,58.42,67,21,2.26,IN,2022-01-09 23:23:01
373,Swietochlowice,50.2964,18.9173,33.37,80,100,1.99,PL,2022-01-09 23:23:01
374,Atambua,-9.1061,124.8925,77.38,80,68,0.67,ID,2022-01-09 23:23:02
375,Bowen,-20.0167,148.2333,84.58,69,48,15.12,AU,2022-01-09 23:23:02
376,Olinda,-8.0089,-34.8553,82.13,74,40,10.36,BR,2022-01-09 23:23:02
377,Rio De Janeiro,-22.9028,-43.2075,70.02,90,100,9.22,BR,2022-01-09 23:21:21
378,Ercis,39.0287,43.3586,26.2,71,63,3.22,TR,2022-01-09 23:23:03
379,Maraa,-1.8333,-65.3667,74.68,95,81,0.87,BR,2022-01-09 23:23:03
380,Mareeba,-17.0,145.4333,75.43,94,96,4.52,AU,2022-01-09 23:23:03
381,Sibi,29.5448,67.8764,54.64,58,0,1.07,PK,2022-01-09 23:23:04
382,Te Anau,-45.4167,167.7167,68.18,66,83,3.33,NZ,2022-01-09 23:23:04
383,Angoche,-16.2325,39.9086,74.44,97,100,5.91,MZ,2022-01-09 23:23:04
384,Arlit,18.7369,7.3853,56.79,19,48,8.28,NE,2022-01-09 23:23:05
385,Yalova,40.655,29.2769,50.85,73,90,3.67,TR,2022-01-09 23:20:36
386,Sechura,-5.5569,-80.8222,77.99,61,82,17.87,PE,2022-01-09 23:23:05
387,Laguna,38.421,-121.4238,64.22,63,0,1.99,US,2022-01-09 23:23:05
388,Pevek,69.7008,170.3133,-15.81,100,87,3.44,RU,2022-01-09 23:23:06
389,Sri Aman,1.2376,111.4621,75.25,94,96,0.0,MY,2022-01-09 23:22:57
390,Witu,-2.3889,40.4382,77.16,91,40,3.31,KE,2022-01-09 23:23:06
391,Kluang,2.0251,103.3328,74.93,94,100,4.12,MY,2022-01-09 23:23:06
392,Wichian Buri,15.6578,101.106,70.03,61,2,2.95,TH,2022-01-09 23:23:07
393,Batemans Bay,-35.7167,150.1833,86.2,66,23,5.14,AU,2022-01-09 23:23:07
394,Lagoa,39.05,-27.9833,60.03,73,100,13.78,PT,2022-01-09 23:23:07
395,Palora,-1.7,-77.9333,78.78,76,99,1.74,EC,2022-01-09 23:23:08
396,North Myrtle Beach,33.816,-78.68,67.21,86,0,10.36,US,2022-01-09 23:21:38
397,Dutlwe,-23.9833,23.9,72.93,57,54,6.93,BW,2022-01-09 23:23:08
398,Filingue,14.3521,3.3168,69.66,16,6,10.6,NE,2022-01-09 23:22:06
399,Thinadhoo,0.5333,72.9333,81.77,75,98,8.81,MV,2022-01-09 23:23:09
400,Merauke,-8.4667,140.3333,79.41,85,100,10.07,ID,2022-01-09 23:23:09
401,Venice,27.0998,-82.4543,79.0,77,75,0.0,US,2022-01-09 23:21:24
402,Katerero,-1.4,31.7333,68.23,68,100,5.12,TZ,2022-01-09 23:23:09
403,Husavik,66.0449,-17.3389,42.71,85,100,28.86,IS,2022-01-09 23:23:10
404,Dunedin,-45.8742,170.5036,65.3,72,78,4.99,NZ,2022-01-09 23:23:10
405,Komsomolets,53.7453,62.0708,-0.96,92,9,6.49,KZ,2022-01-09 23:23:10
406,Tombouctou,20.0,-3.0,57.99,16,92,10.78,ML,2022-01-09 23:23:11
407,Sao Joao Da Barra,-21.6403,-41.0511,70.45,96,100,9.62,BR,2022-01-09 23:23:11
408,Shirone,37.7667,139.0167,37.38,93,100,1.59,JP,2022-01-09 23:23:11
409,Ulvik,60.5672,6.9187,25.36,85,92,6.64,NO,2022-01-09 23:23:12
410,Severobaykalsk,55.65,109.3167,-11.04,90,22,5.44,RU,2022-01-09 23:23:12
411,Kahului,20.8947,-156.47,85.26,64,0,10.36,US,2022-01-09 23:23:12
412,Sulphur,30.2366,-93.3774,74.01,90,100,0.0,US,2022-01-09 23:23:12
413,Canavieiras,-15.675,-38.9472,77.49,83,100,7.31,BR,2022-01-09 23:24:13
414,Makakilo City,21.3469,-158.0858,79.12,60,0,6.91,US,2022-01-09 23:24:13
415,Kadhan,24.481,68.9859,58.91,49,0,7.47,PK,2022-01-09 23:24:13
416,Pascagoula,30.3658,-88.5561,74.05,92,75,4.61,US,2022-01-09 23:23:38
417,Ajdabiya,30.7554,20.2263,57.02,74,44,19.13,LY,2022-01-09 23:24:14
418,Turukhansk,65.8167,87.9833,-3.39,99,100,7.92,RU,2022-01-09 23:24:14
419,Machachi,-0.5,-78.5667,55.87,97,100,1.97,EC,2022-01-09 23:24:15
420,Guerrero Negro,27.9769,-114.0611,67.82,48,100,6.06,MX,2022-01-09 23:22:38
421,Sinazongwe,-17.2614,27.4618,73.38,79,100,3.24,ZM,2022-01-09 23:24:15
422,Kelvington,52.1667,-103.5343,-18.74,96,33,5.61,CA,2022-01-09 23:20:23
423,Norman Wells,65.282,-126.8329,-32.76,68,75,5.75,CA,2022-01-09 23:24:15
424,Olafsvik,64.8945,-23.7142,39.13,93,100,31.21,IS,2022-01-09 23:24:16
425,Okha,53.5739,142.9478,0.9,95,100,27.96,RU,2022-01-09 23:24:16
426,Estevan,49.1334,-102.9842,-7.26,70,0,6.91,CA,2022-01-09 23:24:16
427,Shelburne,44.0787,-80.2041,23.27,87,89,19.44,CA,2022-01-09 23:24:17
428,Ondjiva,-17.0667,15.7333,71.46,69,100,6.13,AO,2022-01-09 23:24:17
429,Sooke,48.3746,-123.7276,48.18,75,29,14.97,CA,2022-01-09 23:24:17
430,Jumla,29.2747,82.1838,37.08,93,100,2.24,NP,2022-01-09 23:24:18
431,Carmen,18.6333,-91.8333,86.04,58,40,5.75,MX,2022-01-09 23:24:18
432,Aasiaat,68.7098,-52.8699,9.55,96,100,10.78,GL,2022-01-09 23:24:18
433,Changli,39.7042,119.1506,25.16,78,98,5.64,CN,2022-01-09 23:24:19
434,Awjilah,29.1081,21.2869,51.69,52,1,13.29,LY,2022-01-09 23:24:19
435,Gao,16.6362,1.637,63.36,17,97,13.87,ML,2022-01-09 23:24:19
436,Hvide Sande,56.0045,8.1294,35.89,98,100,18.81,DK,2022-01-09 23:24:20
437,Madimba,-10.4,40.3333,80.73,81,95,9.17,TZ,2022-01-09 23:24:20
438,Xining,36.6167,101.7667,18.36,66,82,2.13,CN,2022-01-09 23:24:20
439,Alta Gracia,-31.6529,-64.4283,89.89,19,15,6.67,AR,2022-01-09 23:24:21
440,Shestakovo,56.4915,103.96,-18.0,92,52,3.8,RU,2022-01-09 23:24:21
441,Brae,60.3964,-1.353,44.51,76,99,22.62,GB,2022-01-09 23:24:21
442,Nizhnyaya Maktama,54.8636,52.4281,5.14,90,100,7.36,RU,2022-01-09 23:24:21
443,San Luis De Palenque,5.4214,-71.7317,84.92,41,57,7.49,CO,2022-01-09 23:24:22
444,Maniitsoq,65.4167,-52.9,11.68,83,100,3.42,GL,2022-01-09 23:24:22
445,Hambantota,6.1241,81.1185,75.16,89,100,9.37,LK,2022-01-09 23:24:22
446,Touros,-5.1989,-35.4608,81.5,73,100,15.12,BR,2022-01-09 23:24:23
447,Passo De Camaragibe,-9.2368,-35.4901,78.35,82,30,5.53,BR,2022-01-09 23:24:23
448,Luderitz,-26.6481,15.1594,62.73,95,4,4.9,NA,2022-01-09 23:23:21
449,Morondava,-20.2833,44.2833,77.31,81,100,3.89,MG,2022-01-09 23:24:23
450,Zhangjiakou,40.81,114.8794,14.81,49,1,4.18,CN,2022-01-09 23:24:24
451,Khorixas,-20.3667,14.9667,64.02,50,43,3.0,NA,2022-01-09 23:21:18
452,Mizdah,31.4451,12.9801,46.38,34,70,22.41,LY,2022-01-09 23:24:24
453,Nelson Bay,-32.7167,152.15,85.28,73,4,3.0,AU,2022-01-09 23:24:24
454,Sesheke,-17.4759,24.2968,67.98,95,100,4.47,ZM,2022-01-09 23:24:25
455,Ouallam,14.3188,2.0866,68.14,11,7,10.8,NE,2022-01-09 23:24:25
456,Sisimiut,66.9395,-53.6735,13.75,89,100,8.19,GL,2022-01-09 23:24:25
457,Yining,29.0361,114.5636,44.35,89,100,1.14,CN,2022-01-09 23:24:26
458,Igrim,63.1906,64.4162,1.58,89,49,9.84,RU,2022-01-09 23:24:26
459,Deshnok,27.7986,73.3447,54.07,63,4,7.09,IN,2022-01-09 23:24:26
460,Benemerito De Las Americas,16.5167,-90.6439,78.42,76,63,2.21,MX,2022-01-09 23:25:27
461,Emerald,-23.5333,148.1667,82.54,65,75,12.66,AU,2022-01-09 23:25:27
462,Byron Bay,-28.65,153.6167,80.71,67,14,7.38,AU,2022-01-09 23:23:00
463,Slave Lake,55.2834,-114.769,-2.22,78,100,16.11,CA,2022-01-09 23:25:27
464,Plettenberg Bay,-34.0527,23.3716,71.42,72,100,10.78,ZA,2022-01-09 23:25:28
465,Champerico,14.3,-91.9167,88.34,65,40,11.65,GT,2022-01-09 23:25:28
466,Kenora,49.8167,-94.4337,-11.22,63,20,8.05,CA,2022-01-09 23:25:28
467,Jati,24.3539,68.2671,59.9,50,0,7.16,PK,2022-01-09 23:25:29
468,Bukan,36.521,46.2089,35.56,55,58,4.88,IR,2022-01-09 23:25:29
469,Srednekolymsk,67.45,153.6833,-15.3,98,100,5.57,RU,2022-01-09 23:25:29
470,Qasigiannguit,68.8193,-51.1922,17.85,89,100,7.74,GL,2022-01-09 23:25:30
471,Kundla,21.3333,71.3,55.42,54,0,7.85,IN,2022-01-09 23:25:30
472,Deputatskiy,69.3,139.9,-27.65,93,12,5.53,RU,2022-01-09 23:25:30
473,Kandi,11.1342,2.9386,74.77,21,6,5.41,BJ,2022-01-09 23:25:30
474,Komsomolskiy,40.4272,71.7189,39.92,60,75,0.0,UZ,2022-01-09 23:25:31
475,Hammerfest,70.6634,23.6821,25.25,80,40,5.75,NO,2022-01-09 23:25:31
476,Cockburn Town,21.4612,-71.1419,78.03,75,9,22.95,TC,2022-01-09 23:25:31
477,Coahuayana,18.7333,-103.6833,92.68,43,61,6.08,MX,2022-01-09 23:25:32
478,Biri,12.6833,124.3636,79.0,81,46,6.82,PH,2022-01-09 23:25:32
479,Matay,28.419,30.7792,50.92,46,5,7.58,EG,2022-01-09 23:25:32
480,Barcelos,41.5388,-8.6151,57.34,98,100,5.28,PT,2022-01-09 23:22:54
481,Flagstaff,35.1981,-111.6513,48.56,32,0,3.0,US,2022-01-09 23:25:33
482,Juneau,58.3019,-134.4197,21.2,87,100,3.44,US,2022-01-09 23:24:58
483,Waingapu,-9.6567,120.2641,80.22,79,91,4.09,ID,2022-01-09 23:25:54
484,Dumas,35.8656,-101.9732,44.02,22,0,0.0,US,2022-01-09 23:25:54
485,Nouadhibou,20.931,-17.0347,67.98,56,100,5.75,MR,2022-01-09 23:25:55
486,Natal,-5.795,-35.2094,82.62,78,20,10.36,BR,2022-01-09 23:25:19
487,Mayskiy,47.6931,40.1025,33.21,81,100,13.49,RU,2022-01-09 23:25:55
488,Tomatlan,19.9333,-105.25,83.93,43,99,6.73,MX,2022-01-09 23:25:55
489,Seoul,37.5683,126.9778,20.71,93,73,2.3,KR,2022-01-09 23:21:00
490,Nyuksenitsa,60.4128,44.2397,19.17,95,100,7.65,RU,2022-01-09 23:25:56
491,Tigil,57.8,158.6667,12.18,88,65,4.12,RU,2022-01-09 23:25:56
492,Caravelas,-17.7125,-39.2481,75.65,90,92,7.52,BR,2022-01-09 23:25:57
493,Pleshanovo,52.8333,53.4833,-6.99,98,67,4.27,RU,2022-01-09 23:25:57
494,Verkhoyansk,67.5447,133.385,-37.48,100,36,1.59,RU,2022-01-09 23:25:57
495,Freeport,40.6576,-73.5832,41.97,81,100,1.99,US,2022-01-09 23:24:51
496,Sioux Lookout,50.1001,-91.917,-14.42,70,40,8.05,CA,2022-01-09 23:25:58
497,Frontera Comalapa,15.65,-92.1333,81.16,48,3,6.06,MX,2022-01-09 23:25:58
498,Muzhi,65.3667,64.6667,-14.64,98,22,4.72,RU,2022-01-09 23:25:58
499,Arman,59.7,150.1667,14.02,83,100,9.75,RU,2022-01-09 23:25:59
500,Susuman,62.7833,148.1667,-9.72,100,97,2.95,RU,2022-01-09 23:25:59
501,Tongliao,43.6125,122.2653,0.55,83,87,9.26,CN,2022-01-09 23:25:59
502,Karachev,53.1229,34.9852,22.89,98,100,4.54,RU,2022-01-09 23:25:59
503,Mao,39.8885,4.2658,52.36,82,0,6.91,ES,2022-01-09 23:26:00
504,Alice Springs,-23.7,133.8833,92.75,13,0,8.05,AU,2022-01-09 23:23:47
505,Nabire,-3.3667,135.4833,77.4,86,100,0.72,ID,2022-01-09 23:25:05
506,Nara,34.6851,135.8049,45.64,76,38,1.01,JP,2022-01-09 23:21:20
507,Nueve De Julio,-35.4444,-60.8831,89.8,17,70,7.52,AR,2022-01-09 23:23:00
508,Hayden,47.766,-116.7866,39.4,73,0,8.05,US,2022-01-09 23:27:00
509,Mbandaka,0.0487,18.2603,79.48,57,90,3.89,CD,2022-01-09 23:27:01
510,Richards Bay,-28.783,32.0377,69.87,84,10,6.55,ZA,2022-01-09 23:27:01
511,Bannu,32.9854,70.6027,49.89,68,0,1.79,PK,2022-01-09 23:27:02
512,Vao,-22.6667,167.4833,77.38,81,89,23.17,NC,2022-01-09 23:27:02
513,Miramas,43.5833,5.0,46.99,81,0,6.91,FR,2022-01-09 23:27:02
514,Bardiyah,31.7561,25.0865,55.22,62,18,23.94,LY,2022-01-09 23:27:03
515,Lewistown,40.5992,-77.5714,42.76,100,75,0.0,US,2022-01-09 23:27:03
516,Rocha,-34.4833,-54.3333,70.88,73,0,14.36,UY,2022-01-09 23:27:03
517,Asfi,32.2994,-9.2372,56.32,54,38,17.29,MA,2022-01-09 23:27:04
518,Necochea,-38.5473,-58.7368,87.24,22,95,9.82,AR,2022-01-09 23:27:04
519,Bedford,52.1346,-0.4663,39.69,91,88,6.46,GB,2022-01-09 23:27:04
520,Oranjemund,-28.55,16.4333,64.98,94,10,3.58,NA,2022-01-09 23:27:05
521,Yako,12.9667,-2.2667,68.76,13,8,9.06,BF,2022-01-09 23:27:05
522,Gobabis,-22.45,18.9667,68.16,77,23,11.61,NA,2022-01-09 23:27:05
523,Tadine,-21.55,167.8833,80.4,77,8,22.32,NC,2022-01-09 23:27:06
524,Kalmar,56.6616,16.3616,34.97,92,75,3.44,SE,2022-01-09 23:27:06
525,Kabale,-1.2486,29.9899,59.68,77,100,2.53,UG,2022-01-09 23:27:06
526,Sylvan Lake,52.3168,-114.0853,5.65,71,100,12.66,CA,2022-01-09 23:27:07
527,Kuito,-12.3833,16.9333,61.63,96,100,3.62,AO,2022-01-09 23:27:07
528,Saint-Augustin,51.226,-58.6502,25.9,96,94,18.77,CA,2022-01-09 23:27:07
529,Mount Gambier,-37.8333,140.7667,69.71,64,56,6.91,AU,2022-01-09 23:27:08
530,Beni,0.5,29.4667,67.66,74,100,2.06,CD,2022-01-09 23:27:08
531,Catamarca,-28.4696,-65.7852,92.77,37,13,4.0,AR,2022-01-09 23:27:08
532,Carnot,4.9409,15.8665,75.13,27,80,3.22,CF,2022-01-09 23:27:09
533,Cascais,38.6979,-9.4215,57.51,72,84,3.0,PT,2022-01-09 23:27:09
534,Hazaribag,23.9833,85.35,59.47,75,91,2.24,IN,2022-01-09 23:27:09
535,Moose Factory,51.2585,-80.6094,-4.0,71,40,16.11,CA,2022-01-09 23:27:09
536,Cameta,-2.2444,-49.4958,74.95,89,100,3.62,BR,2022-01-09 23:27:10
537,Mimongo,-1.6195,11.6068,70.07,98,88,2.42,GA,2022-01-09 23:27:10
538,Chuka,-0.3332,37.6459,58.12,83,8,5.68,KE,2022-01-09 23:27:10
539,Penha,-26.7694,-48.6458,69.67,94,100,9.22,BR,2022-01-09 23:27:11
540,Bilma,18.6853,12.9164,52.77,24,2,12.84,NE,2022-01-09 23:27:11
541,Dakar,14.6937,-17.4441,76.08,53,100,2.3,SN,2022-01-09 23:22:35
542,Chifeng,42.2683,118.9636,10.36,56,82,2.68,CN,2022-01-09 23:24:16
543,Hokitika,-42.7167,170.9667,66.65,70,93,6.08,NZ,2022-01-09 23:27:11
544,Haicheng,40.8516,122.7475,18.25,62,100,11.25,CN,2022-01-09 23:27:12
545,Fonte Boa,-2.4959,-66.2662,74.98,97,99,3.11,BR,2022-01-09 23:27:12
546,Lamu,-2.2717,40.902,77.22,82,57,11.45,KE,2022-01-09 23:27:12
547,Taoudenni,22.6783,-3.9836,56.91,17,42,11.83,ML,2022-01-09 23:27:13
548,Livadiya,42.8692,132.6764,14.85,43,0,8.16,RU,2022-01-09 23:27:13
549,Onega,63.9061,38.1404,-6.52,100,98,4.18,RU,2022-01-09 23:27:13
550,New Philadelphia,40.4898,-81.4457,37.22,66,100,11.01,US,2022-01-09 23:27:14
551,Hirara,24.8,125.2833,67.86,77,75,14.97,JP,2022-01-09 23:27:14
552,Krasnokholm,51.5979,54.1567,-1.61,91,53,6.35,RU,2022-01-09 23:27:14
553,Chapeco,-27.0964,-52.6183,73.15,46,40,8.05,BR,2022-01-09 23:27:15
554,Traverse City,44.7631,-85.6206,17.71,68,40,12.66,US,2022-01-09 23:28:15
555,Lexington,37.9887,-84.4777,36.72,66,0,1.01,US,2022-01-09 23:23:55
556,Areosa,41.7178,-8.8571,58.26,96,100,8.9,PT,2022-01-09 23:28:15
557,Maple Creek,49.9168,-109.4848,-2.15,65,77,2.3,CA,2022-01-09 23:25:45
558,Oudtshoorn,-33.5907,22.2014,68.36,86,100,3.11,ZA,2022-01-09 23:28:16
559,Maumere,-8.6199,122.2111,80.76,77,99,4.92,ID,2022-01-09 23:28:16
560,Tungor,53.3808,142.9564,-0.02,95,100,28.1,RU,2022-01-09 23:28:16
561,Haines Junction,60.7522,-137.5108,-18.45,76,100,1.14,CA,2022-01-09 23:28:17
562,Tilichiki,60.4667,166.1,-6.03,93,84,7.7,RU,2022-01-09 23:28:17
563,Kottayam,9.5833,76.5167,75.22,95,28,2.68,IN,2022-01-09 23:28:17
564,Moquegua,-17.1956,-70.9353,66.16,78,89,7.96,PE,2022-01-09 23:28:18
565,Riyadh,24.6877,46.7219,55.54,32,3,8.21,SA,2022-01-09 23:28:18
566,Pyshchug,58.8873,45.7134,19.38,94,100,8.86,RU,2022-01-09 23:28:18
567,Mayumba,-3.432,10.6554,76.93,94,98,4.9,GA,2022-01-09 23:28:19
568,Cahors,44.4167,1.3333,46.15,96,100,5.66,FR,2022-01-09 23:28:19
569,Baykit,61.67,96.37,14.86,97,100,1.7,RU,2022-01-09 23:28:19
570,Kristinehamn,59.3098,14.1081,30.76,91,100,12.91,SE,2022-01-09 23:28:20
571,Uporovo,56.3109,66.2693,0.81,92,16,9.4,RU,2022-01-09 23:28:20
572,Linjiang,41.8069,126.9078,7.3,96,95,1.14,CN,2022-01-09 23:26:18
573,Mitsamiouli,-11.3847,43.2844,82.29,76,89,9.95,KM,2022-01-09 23:28:20
574,Miramar,25.9873,-80.2323,77.02,84,100,0.0,US,2022-01-09 23:28:21
575,Mabaruma,8.2,-59.7833,70.11,96,23,3.09,GY,2022-01-09 23:28:21
576,Burmakino,57.4166,40.2369,18.97,86,100,2.24,RU,2022-01-09 23:28:21
577,Kutum,14.2,24.6667,73.69,24,72,12.55,SD,2022-01-09 23:28:22
578,Chengde,40.9725,117.9361,16.18,57,1,5.5,CN,2022-01-09 23:28:22
579,Oranjestad,12.524,-70.027,78.91,79,20,1.99,AW,2022-01-09 23:28:22
580,Lang Son,21.8333,106.7333,53.87,88,100,2.73,VN,2022-01-09 23:28:23
581,Polunochnoye,60.8697,60.4153,1.67,93,98,5.03,RU,2022-01-09 23:28:23
582,Komatipoort,-25.4332,31.9548,72.05,89,23,3.13,ZA,2022-01-09 23:28:23
583,Temerloh,3.4483,102.4176,70.75,98,74,1.9,MY,2022-01-09 23:28:24
584,Homer,59.6425,-151.5483,17.47,55,100,8.05,US,2022-01-09 23:28:24
585,Tangier,35.7806,-5.8137,58.24,100,40,4.61,MA,2022-01-09 23:26:56
586,Ucluelet,48.9329,-125.5528,48.51,85,76,1.01,CA,2022-01-09 23:28:24
587,Concarneau,47.875,-3.9225,56.82,94,100,17.63,FR,2022-01-09 23:28:25
588,Kamsack,51.5667,-101.9009,-16.15,91,8,8.81,CA,2022-01-09 23:28:25
589,North Bend,43.4065,-124.2243,60.71,75,0,0.0,US,2022-01-09 23:28:25
590,Bitung,1.4451,125.1824,76.05,79,100,5.35,ID,2022-01-09 23:28:26
591,Iskateley,67.6803,53.1512,3.04,94,99,11.16,RU,2022-01-09 23:28:26
592,San Policarpo,12.1791,125.5072,78.35,82,55,2.33,PH,2022-01-09 23:28:26
593,Erzin,36.9559,36.2,50.72,79,96,6.69,TR,2022-01-09 23:28:27
594,San Jeronimo,-11.9472,-75.2829,56.34,71,52,4.14,PE,2022-01-09 23:28:27
595,Acapulco,16.8634,-99.8901,82.22,69,75,8.05,MX,2022-01-09 23:24:49
596,Kropotkin,45.4375,40.5756,37.04,82,95,9.84,RU,2022-01-09 23:28:28
597,Burnie,-41.0667,145.9167,64.31,88,91,4.94,AU,2022-01-09 23:28:28
598,Leshukonskoye,64.8989,45.7622,0.14,97,98,6.96,RU,2022-01-09 23:29:28
599,Tempio Pausania,40.8974,9.1035,45.52,79,86,16.06,IT,2022-01-09 23:29:28
600,Vilyuysk,63.7553,121.6247,-35.21,99,25,3.06,RU,2022-01-09 23:29:29
601,Gol,60.7014,8.9457,27.21,97,100,2.42,NO,2022-01-09 23:29:29
602,Pitkyaranta,61.5734,31.4792,0.07,99,60,5.95,RU,2022-01-09 23:29:29
603,Gimli,50.6336,-96.9907,-11.18,53,7,5.75,CA,2022-01-09 23:29:30
604,Luau,-10.7073,22.2247,65.44,97,78,2.42,AO,2022-01-09 23:29:30
605,Ochakiv,46.6128,31.5498,42.94,95,100,6.24,UA,2022-01-09 23:29:30
606,San Patricio,28.017,-97.5169,77.09,51,94,16.82,US,2022-01-09 23:29:31
607,Omsukchan,62.5333,155.8,-14.01,96,52,4.0,RU,2022-01-09 23:29:31
608,Cajamarca,-7.1638,-78.5003,60.87,59,75,4.61,PE,2022-01-09 23:29:31
609,Campoverde,-8.4753,-74.8058,78.49,49,70,1.5,PE,2022-01-09 23:29:32
610,Trapani,37.8333,12.6667,53.69,71,40,26.46,IT,2022-01-09 23:29:32
611,Sompeta,18.9333,84.6,68.0,83,0,3.91,IN,2022-01-09 23:29:32
612,Gazojak,41.1875,61.4036,36.18,75,9,8.86,TM,2022-01-09 23:29:33
613,Sananduva,-27.9497,-51.8067,69.03,46,74,6.89,BR,2022-01-09 23:29:33
614,Galle,6.0367,80.217,75.13,88,100,7.23,LK,2022-01-09 23:29:33
615,Harper,4.375,-7.7169,79.86,83,78,8.97,LR,2022-01-09 23:29:34
616,Villa Bruzual,9.3328,-69.1208,82.22,43,49,11.45,VE,2022-01-09 23:29:34
617,Murupara,-38.4667,176.7,79.29,41,100,6.69,NZ,2022-01-09 23:29:34
618,Coos Bay,43.3665,-124.2179,60.78,75,0,0.0,US,2022-01-09 23:29:35
619,Flinders,-34.5833,150.8552,81.18,84,80,3.0,AU,2022-01-09 23:29:36
620,Wau,7.7029,27.9953,82.8,27,93,1.01,SS,2022-01-09 23:29:38
621,Mulege,26.8833,-111.9833,68.11,57,100,9.95,MX,2022-01-09 23:29:38
622,Les Cayes,18.2,-73.75,75.92,76,69,3.13,HT,2022-01-09 23:29:38
623,Surgana,20.5667,73.6167,51.69,45,0,2.86,IN,2022-01-09 23:29:38
624,Saint-Paul,-21.0096,55.2707,77.11,85,88,3.09,RE,2022-01-09 23:29:39
625,Sao Paulo Do Potengi,-5.895,-35.7628,82.08,72,99,11.95,BR,2022-01-09 23:29:40
626,Biltine,14.5333,20.9167,69.98,21,0,8.59,TD,2022-01-09 23:29:41
627,Mollendo,-17.0231,-72.0147,71.24,84,51,5.97,PE,2022-01-09 23:29:42
628,Liliani,32.2065,72.9537,48.65,92,11,3.87,PK,2022-01-09 23:29:43
629,Tselinnoye,53.0833,85.6667,8.73,93,59,12.46,RU,2022-01-09 23:29:43
630,Winnemucca,40.973,-117.7357,44.65,45,0,10.36,US,2022-01-09 23:29:44
631,Aktau,43.65,51.2,32.58,74,4,19.24,KZ,2022-01-09 23:29:44
632,Sakakah,29.9697,40.2064,65.77,36,98,13.76,SA,2022-01-09 23:29:44
633,Waw,7.7029,27.9953,82.8,27,93,1.01,SS,2022-01-09 23:29:38
634,Kalmunai,7.4167,81.8167,75.31,89,100,4.74,LK,2022-01-09 23:29:45
635,Emod,47.9333,20.8167,26.49,91,100,3.29,HU,2022-01-09 23:29:45
636,Evensk,61.95,159.2333,6.44,79,75,8.32,RU,2022-01-09 23:29:45
637,Kaniama,-7.5667,24.1833,67.03,96,97,2.1,CD,2022-01-09 23:29:45
638,Kloulklubed,7.0419,134.2556,79.3,75,100,12.88,PW,2022-01-09 23:29:46
639,Honiara,-9.4333,159.95,85.69,69,96,8.1,SB,2022-01-09 23:29:46
640,Danilovka,50.3557,44.1168,21.81,83,100,14.52,RU,2022-01-09 23:29:46
641,Tezu,27.9167,96.1667,62.01,49,100,3.38,IN,2022-01-09 23:29:47
642,Bay Roberts,47.5999,-53.2648,29.52,78,54,4.0,CA,2022-01-09 23:29:47
643,Carlsbad,33.1581,-117.3506,77.49,55,0,1.99,US,2022-01-09 23:29:47
644,Sur,22.5667,59.5289,67.24,61,0,3.6,OM,2022-01-09 23:30:48
645,Tramore,52.1624,-7.1524,47.62,95,100,1.01,IE,2022-01-09 23:30:48
646,Kruisfontein,-34.0033,24.7314,65.88,74,94,18.79,ZA,2022-01-09 23:30:48
647,Urdoma,61.7533,48.5442,18.97,93,100,8.61,RU,2022-01-09 23:30:48
648,Vostok,46.4856,135.8833,-9.54,95,34,2.15,RU,2022-01-09 23:30:16
649,Miraslau,46.3667,23.7167,33.22,100,100,4.61,RO,2022-01-09 23:30:49
650,Zile,40.3031,35.8864,40.32,73,44,6.53,TR,2022-01-09 23:30:49
651,Coolum Beach,-26.5333,153.1,81.1,77,99,11.99,AU,2022-01-09 23:30:49
652,Saveh,35.0213,50.3566,42.04,61,18,1.21,IR,2022-01-09 23:30:50
653,Fershampenuaz,53.5202,59.8117,-9.87,99,39,6.38,RU,2022-01-09 23:30:50
654,Ambon,-3.6954,128.1814,78.94,89,20,5.75,ID,2022-01-09 23:29:08
655,Madras,13.0878,80.2785,77.97,85,20,0.0,IN,2022-01-09 23:29:06
656,Bagdarin,54.4333,113.6,-21.82,93,5,2.91,RU,2022-01-09 23:30:51
657,Kuchera,26.9839,73.9719,50.49,70,0,1.39,IN,2022-01-09 23:30:51
658,Karonga,-9.9333,33.9333,73.78,84,100,3.36,MW,2022-01-09 23:30:51
659,Puerto Escondido,15.85,-97.0667,83.23,65,0,5.75,MX,2022-01-09 23:30:51
660,Guozhen,34.3659,107.359,38.12,54,98,1.12,CN,2022-01-09 23:30:52
661,Ewa Beach,21.3156,-158.0072,80.55,60,0,5.01,US,2022-01-09 23:28:42
662,Gilgit,35.9221,74.3087,36.19,71,100,1.7,PK,2022-01-09 23:30:52
663,Vilhena,-12.7406,-60.1458,75.42,88,40,10.36,BR,2022-01-09 23:30:52
664,Bobcaygeon,44.5462,-78.542,26.87,85,88,15.21,CA,2022-01-09 23:30:53
665,Santa Vitoria Do Palmar,-33.5189,-53.3681,70.07,78,0,13.58,BR,2022-01-09 23:30:53
666,Port Macquarie,-31.4333,152.9167,80.89,70,37,9.17,AU,2022-01-09 23:26:37
667,Ponta Delgada,37.7333,-25.6667,60.49,77,40,12.66,PT,2022-01-09 23:30:54
668,Inta,66.0317,60.1659,3.87,85,99,17.11,RU,2022-01-09 23:30:54
669,Foam Lake,51.65,-103.5343,-18.38,92,40,7.54,CA,2022-01-09 23:30:22
670,Gamboula,4.1178,15.1393,74.86,32,99,3.06,CF,2022-01-09 23:30:54
671,Benghazi,32.1167,20.0667,60.3,60,92,29.64,LY,2022-01-09 23:30:55
672,Yashkul,46.1711,45.3435,30.38,77,35,11.74,RU,2022-01-09 23:30:55
673,Yilan,24.757,121.753,63.82,95,100,2.21,TW,2022-01-09 23:30:55
674,Linqu,36.5156,118.5397,35.87,76,97,2.68,CN,2022-01-09 23:30:56
675,Monrovia,6.3005,-10.7969,78.57,83,32,7.11,LR,2022-01-09 23:30:56
676,Cortes,41.9395,-1.4396,57.04,73,99,24.05,ES,2022-01-09 23:30:56
677,Hay River,60.8156,-115.7999,-20.22,76,75,0.0,CA,2022-01-09 23:28:58
678,Gimbi,9.1667,35.8333,58.91,60,21,2.06,ET,2022-01-09 23:30:57
679,Yambio,4.5721,28.3955,77.38,38,100,1.88,SS,2022-01-09 23:30:57
680,San Andres,12.5847,-81.7006,80.62,78,20,10.36,CO,2022-01-09 23:27:13
681,Nelson,-41.2833,173.2833,81.45,51,100,6.2,NZ,2022-01-09 23:27:28
682,Shadrinsk,56.0852,63.6335,-0.49,91,36,8.16,RU,2022-01-09 23:30:58
683,Palic,46.1023,19.7635,28.89,94,99,6.44,RS,2022-01-09 23:30:58
684,Salinopolis,-0.6136,-47.3561,77.49,85,98,3.27,BR,2022-01-09 23:30:58
685,Ostrovnoy,68.0531,39.5131,27.43,68,100,20.92,RU,2022-01-09 23:30:58
686,Stokmarknes,68.5646,14.9108,21.51,89,41,3.36,NO,2022-01-09 23:30:59
687,Saint-Pierre,-21.3393,55.4781,76.68,83,0,5.75,RE,2022-01-09 23:30:59
688,San Ramon De La Nueva Oran,-23.1322,-64.326,88.34,52,76,3.85,AR,2022-01-09 23:30:59
689,Forio,40.7342,13.8646,46.42,84,66,13.0,IT,2022-01-09 23:31:00
690,Chirongui,-12.9319,45.1483,76.93,74,98,4.83,YT,2022-01-09 23:31:00
691,Sampit,-2.5333,112.95,77.18,91,83,0.81,ID,2022-01-09 23:31:00
692,Najibabad,29.6333,78.3333,54.59,94,74,3.49,IN,2022-01-09 23:32:01
693,Deder,9.3167,41.45,54.0,83,1,2.98,ET,2022-01-09 23:32:01
